[{"name":"ARLINGTON","hours":["Sun","Mon 9 AM - 5 PM","Tue 9 AM - 5 PM","Wed 9 AM - 5 PM","Thu 9 AM - 5 PM","Fri 9 AM - 6 PM","Sat 9 AM - 1 PM"],"address":"4700 Lee Highway Arlington VA 22207","longitude":-77.1211338,"latitude":38.8981779},{"name":"LEE HIGHWAY/GEORGE MASON","hours":["Sun","Mon 9 AM - 5 PM","Tue 9 AM - 5 PM","Wed 9 AM - 5 PM","Thu 9 AM - 5 PM","Fri 9 AM - 6 PM","Sat 9 AM - 1 PM"],"address":"5222 Lee Highway Arlington VA 22207","longitude":-77.1333157,"latitude":38.8960952},{"name":"BALLSTON COMMON MALL","hours":["Sun","Mon 9 AM - 5 PM","Tue 9 AM - 5 PM","Wed 9 AM - 5 PM","Thu 9 AM - 5 PM","Fri 9 AM - 6 PM","Sat 9 AM - 1 PM"],"address":"4100 Wilson Boulevard, 1st Floor Arlington VA 22203","longitude":-77.109526,"latitude":38.879446},{"name":"AMERICAN UNIVERSITY","hours":["Sun","Mon 9 AM - 5 PM","Tue 9 AM - 5 PM","Wed 9 AM - 5 PM","Thu 9 AM - 5 PM","Fri 9 AM - 5 PM","Sat"],"address":"4400 Massachusetts AVE NW Washington DC 20016","longitude":-77.0871844,"latitude":38.9392871},{"name":"SEVEN CORNERS","hours":["Sun","Mon 9 AM - 6 PM","Tue 9 AM - 6 PM","Wed 9 AM - 6 PM","Thu 9 AM - 6 PM","Fri 9 AM - 6 PM","Sat 9 AM - 1 PM"],"address":"6367 Seven Corners Center Falls Church VA 22044","longitude":-77.1506881,"latitude":38.8689155},{"name":"ROSSLYN","hours":["Sun","Mon 9 AM - 5 PM","Tue 9 AM - 5 PM","Wed 9 AM - 5 PM","Thu 9 AM - 5 PM","Fri 9 AM - 6 PM","Sat"],"address":"1100 Wilson Boulevard Arlington VA 22209","longitude":-77.0702878,"latitude":38.8947171},{"name":"LITTLE FALLS","hours":["Sun","Mon 9 AM - 5 PM","Tue 9 AM - 5 PM","Wed 9 AM - 5 PM","Thu 9 AM - 5 PM","Fri 9 AM - 6 PM","Sat 9 AM - 1 PM"],"address":"4701 Sangamore Road Bethesda MD 20816","longitude":-77.1192523,"latitude":38.9500943},{"name":"SPRING VALLEY","hours":["Sun","Mon 9 AM - 5 PM","Tue 9 AM - 5 PM","Wed 9 AM - 5 PM","Thu 9 AM - 5 PM","Fri 9 AM - 6 PM","Sat 9 AM - 1 PM"],"address":"4860 Massachusetts AVE, NW Washington DC 20016","longitude":-77.0961428,"latitude":38.9449596},{"name":"GEORGETOWN (DC)","hours":["Sun","Mon 9 AM - 5 PM","Tue 9 AM - 5 PM","Wed 9 AM - 5 PM","Thu 9 AM - 5 PM","Fri 9 AM - 6 PM","Sat 9 AM - 1 PM"],"address":"1545 Wisconsin AVE, NW Washington DC 20007","longitude":-77.0646324,"latitude":38.9102227},{"name":"FALLS CHURCH","hours":["Sun","Mon 9 AM - 5 PM","Tue 9 AM - 5 PM","Wed 9 AM - 5 PM","Thu 9 AM - 5 PM","Fri 9 AM - 6 PM","Sat 9 AM - 1 PM"],"address":"1100 W. Broad ST Falls Church VA 22046","longitude":-77.1863921,"latitude":38.8923369},{"name":"MCLEAN","hours":["Sun","Mon 9 AM - 5 PM","Tue 9 AM - 5 PM","Wed 9 AM - 5 PM","Thu 9 AM - 5 PM","Fri 9 AM - 6 PM","Sat 9 AM - 1 PM"],"address":"1439 Chain Bridge Road McLean VA 22101","longitude":-77.1782945,"latitude":38.932887},{"name":"COLUMBIA PIKE","hours":["Sun","Mon 9 AM - 6 PM","Tue 9 AM - 6 PM","Wed 9 AM - 6 PM","Thu 9 AM - 6 PM","Fri 9 AM - 6 PM","Sat 9 AM - 1 PM"],"address":"3532 Columbia Pike Arlington VA 22204","longitude":-77.093585,"latitude":38.8605859},{"name":"TENLEY","hours":["Sun","Mon 9 AM - 5 PM","Tue 9 AM - 5 PM","Wed 9 AM - 5 PM","Thu 9 AM - 5 PM","Fri 9 AM - 6 PM","Sat 9 AM - 1 PM"],"address":"4000 Wisconsin AVE Washington DC 20016","longitude":-77.0848741,"latitude":38.9590565},{"name":"Dolley Madison Blvd/Mclean","hours":["Sun","Mon 9 AM - 5 PM","Tue 9 AM - 5 PM","Wed 9 AM - 5 PM","Thu 9 AM - 5 PM","Fri 9 AM - 6 PM","Sat 9 AM - 1 PM"],"address":"6890 Elm Street McLean VA 22101","longitude":-77.1823211,"latitude":38.9380881},{"name":"LEESBURG PIKE PLAZA","hours":["Sun","Mon 9 AM - 5 PM","Tue 9 AM - 5 PM","Wed 9 AM - 5 PM","Thu 9 AM - 5 PM","Fri 9 AM - 6 PM","Sat 9 AM - 1 PM"],"address":"3499 S. Jefferson ST Bailey's Crossroads VA 22041","longitude":-77.1172646,"latitude":38.8491288},{"name":"WESTBARD","hours":["Sun","Mon 9 AM - 5 PM","Tue 9 AM - 5 PM","Wed 9 AM - 5 PM","Thu 9 AM - 5 PM","Fri 9 AM - 6 PM","Sat 9 AM - 1 PM"],"address":"5370 Westbard AVE Bethesda MD 20816","longitude":-77.1066261,"latitude":38.9636956},{"name":"CLEVELAND PARK","hours":["Sun","Mon 9 AM - 5 PM","Tue 9 AM - 5 PM","Wed 9 AM - 5 PM","Thu 9 AM - 5 PM","Fri 9 AM - 6 PM","Sat 9 AM - 1 PM"],"address":"3519 Connecticut AVE Washington DC 20008","longitude":-77.0582046,"latitude":38.9362511},{"name":"IDYLWOOD PLAZA","hours":["Sun","Mon 9 AM - 5 PM","Tue 9 AM - 5 PM","Wed 9 AM - 5 PM","Thu 9 AM - 5 PM","Fri 9 AM - 6 PM","Sat 9 AM - 1 PM"],"address":"7501 Leesburg Pike Falls Church VA 22043","longitude":-77.2038825,"latitude":38.9024769},{"name":"PENTAGON CITY","hours":["Sun","Mon 9 AM - 5 PM","Tue 9 AM - 5 PM","Wed 9 AM - 5 PM","Thu 9 AM - 5 PM","Fri 9 AM - 6 PM","Sat 9 AM - 1 PM"],"address":"1100 S. Hayes ST Arlington VA 22202","longitude":-77.0601179,"latitude":38.8639404},{"name":"18TH &amp; M","hours":["Sun","Mon 9 AM - 5 PM","Tue 9 AM - 5 PM","Wed 9 AM - 5 PM","Thu 9 AM - 5 PM","Fri 9 AM - 6 PM","Sat"],"address":"1800 M ST, NW Washington DC 20036","longitude":-77.0419382,"latitude":38.9053571},{"name":"WESTERN AVENUE","hours":["Sun","Mon 9 AM - 5 PM","Tue 9 AM - 5 PM","Wed 9 AM - 5 PM","Thu 9 AM - 5 PM","Fri 9 AM - 6 PM","Sat 9 AM - 1 PM"],"address":"5459 Wisconsin AVE Chevy Chase MD 20815","longitude":-77.0849195,"latitude":38.9625208},{"name":"PENNSYLVANIA AVENUE","hours":["Sun","Mon 9 AM - 5 PM","Tue 9 AM - 5 PM","Wed 9 AM - 5 PM","Thu 9 AM - 5 PM","Fri 9 AM - 6 PM","Sat"],"address":"1717 Pennsylvania AVE, NW Washington DC 20006","longitude":-77.040381,"latitude":38.89952},{"name":"1700 K STREET","hours":["Sun","Mon 9 AM - 5 PM","Tue 9 AM - 5 PM","Wed 9 AM - 5 PM","Thu 9 AM - 5 PM","Fri 9 AM - 6 PM","Sat"],"address":"1700 K ST Washington DC 20006","longitude":-77.0399522,"latitude":38.902173},{"name":"17TH &amp; L","hours":["Sun","Mon 9 AM - 5 PM","Tue 9 AM - 5 PM","Wed 9 AM - 5 PM","Thu 9 AM - 5 PM","Fri 9 AM - 6 PM","Sat"],"address":"1100 17th ST, NW Washington DC 20036","longitude":-77.0385248,"latitude":38.9037384},{"name":"McLean Headquarters","hours":["Sun","Mon 8:30 AM - 5 PM","Tue 8:30 AM - 5 PM","Wed 8:30 AM - 5 PM","Thu 8:30 AM - 5 PM","Fri 8:30 AM - 5 PM","Sat"],"address":"1680 Capital One Dr. McLean VA 22102","longitude":-77.212276,"latitude":38.9257487},{"name":"MCPHERSON SQUARE","hours":["Sun","Mon 9 AM - 5 PM","Tue 9 AM - 5 PM","Wed 9 AM - 5 PM","Thu 9 AM - 5 PM","Fri 9 AM - 6 PM","Sat"],"address":"925 15th ST, N.W. Washington DC 20005","longitude":-77.033287,"latitude":38.902006},{"name":"CHEVY CHASE CIRCLE","hours":["Sun","Mon 9 AM - 5 PM","Tue 9 AM - 5 PM","Wed 9 AM - 5 PM","Thu 9 AM - 5 PM","Fri 9 AM - 6 PM","Sat 9 AM - 1 PM"],"address":"5714 Connecticut AVE, NW Washington DC 20015","longitude":-77.0767568,"latitude":38.9663478},{"name":"COLUMBIA SQUARE/12TH &amp; F STREETS","hours":["Sun","Mon 9 AM - 5 PM","Tue 9 AM - 5 PM","Wed 9 AM - 5 PM","Thu 9 AM - 5 PM","Fri 9 AM - 6 PM","Sat"],"address":"1200 F ST, NW Washington DC 20004","longitude":-77.0282675,"latitude":38.897154},{"name":"CRYSTAL CITY II","hours":["Sun","Mon 9 AM - 5 PM","Tue 9 AM - 5 PM","Wed 9 AM - 5 PM","Thu 9 AM - 5 PM","Fri 9 AM - 6 PM","Sat 9 AM - 1 PM"],"address":"2100 F Crystal Drive Arlington VA 22202","longitude":-77.0497192,"latitude":38.8550463},{"name":"901 NEW YORK AVENUE","hours":["Sun","Mon 9 AM - 5 PM","Tue 9 AM - 5 PM","Wed 9 AM - 5 PM","Thu 9 AM - 5 PM","Fri 9 AM - 6 PM","Sat"],"address":"901 New York AVE, NW Washington DC 20001","longitude":-77.0251895,"latitude":38.9021414},{"name":"TYSON'S INTERNATIONAL DRIVE","hours":["Sun","Mon 9 AM - 5 PM","Tue 9 AM - 5 PM","Wed 9 AM - 5 PM","Thu 9 AM - 5 PM","Fri 9 AM - 6 PM","Sat 9 AM - 1 PM"],"address":"8110 Fletcher ST McLean VA 22102","longitude":-77.2258877,"latitude":38.9175184},{"name":"BETHESDA AVENUE","hours":["Sun","Mon 9 AM - 5 PM","Tue 9 AM - 5 PM","Wed 9 AM - 5 PM","Thu 9 AM - 5 PM","Fri 9 AM - 6 PM","Sat 9 AM - 1 PM"],"address":"4708 Bethesda AVE Bethesda MD 20814","longitude":-77.0935135,"latitude":38.9808356},{"name":"BRADLEE CENTER","hours":["Sun","Mon 9 AM - 5 PM","Tue 9 AM - 5 PM","Wed 9 AM - 5 PM","Thu 9 AM - 5 PM","Fri 9 AM - 6 PM","Sat 9 AM - 1 PM"],"address":"3690 - A King ST Alexandria VA 22302","longitude":-77.0920119,"latitude":38.8298056},{"name":"TYSON'S CORNER","hours":["Sun","Mon 9 AM - 5 PM","Tue 9 AM - 5 PM","Wed 9 AM - 5 PM","Thu 9 AM - 5 PM","Fri 9 AM - 6 PM","Sat"],"address":"8201 Greensboro Drive, Suite 110 McLean VA 22102","longitude":-77.2272485,"latitude":38.9223105},{"name":"MARKET SQUARE","hours":["Sun","Mon 9 AM - 5 PM","Tue 9 AM - 5 PM","Wed 9 AM - 5 PM","Thu 9 AM - 5 PM","Fri 9 AM - 6 PM","Sat"],"address":"701 Pennsylvania AVE NW Washington DC 20004","longitude":-77.0223723,"latitude":38.8944693},{"name":"MT. VERNON TRIANGLE/CITY VISTA/DC","hours":["Sun","Mon 9 AM - 5 PM","Tue 9 AM - 5 PM","Wed 9 AM - 5 PM","Thu 9 AM - 5 PM","Fri 9 AM - 6 PM","Sat 9 AM - 1 PM"],"address":"1075 5th St NW Washington DC 20001","longitude":-77.0187698,"latitude":38.9034306},{"name":"7501 WISCONSIN AVENUE","hours":["Sun","Mon 9 AM - 5 PM","Tue 9 AM - 5 PM","Wed 9 AM - 5 PM","Thu 9 AM - 5 PM","Fri 9 AM - 6 PM","Sat"],"address":"7501 Wisconsin AVE Bethesda MD 20814","longitude":-77.093595,"latitude":38.9854212},{"name":"REAGAN NATIONAL AIRPORT","hours":["Sun","Mon 8 AM - 6 PM","Tue 8 AM - 6 PM","Wed 8 AM - 6 PM","Thu 8 AM - 6 PM","Fri 8 AM - 6 PM","Sat 8 AM - 4 PM"],"address":"Rm. B2518  Arlington VA 20001","longitude":-77.169619,"latitude":38.870767},{"name":"First and H Street NW","hours":["Sun","Mon 9 AM - 5 PM","Tue 9 AM - 5 PM","Wed 9 AM - 5 PM","Thu 9 AM - 5 PM","Fri 9 AM - 6 PM","Sat 9 AM - 1 PM"],"address":"85 H Street NW Washington DC 20002","longitude":-77.0115173,"latitude":38.9007143},{"name":"CORDELL AVENUE","hours":["Sun","Mon 9 AM - 5 PM","Tue 9 AM - 5 PM","Wed 9 AM - 5 PM","Thu 9 AM - 5 PM","Fri 9 AM - 6 PM","Sat 9 AM - 1 PM"],"address":"4825 Cordell AVE Bethesda MD 20814","longitude":-77.0969313,"latitude":38.9909768},{"name":"MERRIFIELD","hours":["Sun","Mon 9 AM - 5 PM","Tue 9 AM - 5 PM","Wed 9 AM - 5 PM","Thu 9 AM - 5 PM","Fri 9 AM - 6 PM","Sat 9 AM - 1 PM"],"address":"3046 Gatehouse Plaza Falls Church VA 22042","longitude":-77.2301317,"latitude":38.8664503},{"name":"ANNANDALE","hours":["Sun","Mon 9 AM - 5 PM","Tue 9 AM - 5 PM","Wed 9 AM - 5 PM","Thu 9 AM - 5 PM","Fri 9 AM - 6 PM","Sat 9 AM - 1 PM"],"address":"7030 Little River Turnpike Annandale VA 22003","longitude":-77.1889159,"latitude":38.8297662},{"name":"CHEVY CHASE LAKE","hours":["Sun","Mon 9 AM - 5 PM","Tue 9 AM - 5 PM","Wed 9 AM - 5 PM","Thu 9 AM - 5 PM","Fri 9 AM - 6 PM","Sat 9 AM - 1 PM"],"address":"8401 Connecticut AVE Chevy Chase MD 20815","longitude":-77.0763425,"latitude":38.9943328},{"name":"FEDERAL GATEWAY PLAZA","hours":["Sun","Mon 9 AM - 5 PM","Tue 9 AM - 5 PM","Wed 9 AM - 5 PM","Thu 9 AM - 5 PM","Fri 9 AM - 6 PM","Sat"],"address":"1100 New Jersey AVE, SE Washington DC 20003","longitude":-77.0040154,"latitude":38.8770883},{"name":"CAPITOL HILL","hours":["Sun","Mon 9 AM - 5 PM","Tue 9 AM - 5 PM","Wed 9 AM - 5 PM","Thu 9 AM - 5 PM","Fri 9 AM - 6 PM","Sat 9 AM - 1 PM"],"address":"336 Pennsylvania AVE, SE Washington DC 20003","longitude":-77.0008256,"latitude":38.8868701},{"name":"BRADLICK SHOPPING CENTER","hours":["Sun","Mon 9 AM - 5 PM","Tue 9 AM - 5 PM","Wed 9 AM - 5 PM","Thu 9 AM - 5 PM","Fri 9 AM - 6 PM","Sat 9 AM - 1 PM"],"address":"7000 Bradlick Shopping Center Annandale VA 22003","longitude":-77.1847098,"latitude":38.7797446},{"name":"VIENNA","hours":["Sun","Mon 9 AM - 5 PM","Tue 9 AM - 5 PM","Wed 9 AM - 5 PM","Thu 9 AM - 5 PM","Fri 9 AM - 6 PM","Sat 9 AM - 1 PM"],"address":"246 Maple AVE East Vienna VA 22180","longitude":-77.261902,"latitude":38.904818},{"name":"PAN AM","hours":["Sun","Mon 9 AM - 5 PM","Tue 9 AM - 5 PM","Wed 9 AM - 5 PM","Thu 9 AM - 5 PM","Fri 9 AM - 6 PM","Sat 9 AM - 1 PM"],"address":"3095 Nutley ST Fairfax VA 22031","longitude":-77.2623614,"latitude":38.8703504},{"name":"CARLYLE PLACE","hours":["Sun","Mon 9 AM - 5 PM","Tue 10 AM - 5 PM","Wed 10 AM - 5 PM","Thu 10 AM - 5 PM","Fri 9 AM - 6 PM","Sat"],"address":"2051 Jamieson AVE, Suite 150 Alexandria VA 22314","longitude":-77.064458,"latitude":38.804034},{"name":"RIGGS ROAD","hours":["Sun","Mon 9 AM - 5 PM","Tue 9 AM - 5 PM","Wed 9 AM - 5 PM","Thu 9 AM - 5 PM","Fri 9 AM - 6 PM","Sat 9 AM - 1 PM"],"address":"5823 Eastern AVE Chillum MD 20782","longitude":-76.9642504,"latitude":38.9358531},{"name":"SILVER SPRING","hours":["Sun","Mon 9 AM - 6 PM","Tue 9 AM - 6 PM","Wed 9 AM - 6 PM","Thu 9 AM - 6 PM","Fri 9 AM - 6 PM","Sat 9 AM - 1 PM"],"address":"8315 Georgia AVE Silver Spring MD 20910","longitude":-77.0263252,"latitude":38.9932522},{"name":"8676 GEORGIA AVENUE","hours":["Sun","Mon 9 AM - 5 PM","Tue 9 AM - 5 PM","Wed 9 AM - 5 PM","Thu 9 AM - 5 PM","Fri 9 AM - 6 PM","Sat 9 AM - 1 PM"],"address":"8676 Georgia AVE Silver Spring MD 20910","longitude":-77.0298628,"latitude":38.9971571},{"name":"GEORGETOWN SQUARE","hours":["Sun","Mon 9 AM - 5 PM","Tue 9 AM - 5 PM","Wed 9 AM - 5 PM","Thu 9 AM - 5 PM","Fri 9 AM - 6 PM","Sat 9 AM - 1 PM"],"address":"10400 Old Georgetown Road Bethesda MD 20814","longitude":-77.1273146,"latitude":39.0252174},{"name":"OLD TOWNE","hours":["Sun","Mon 9 AM - 5 PM","Tue 9 AM - 5 PM","Wed 9 AM - 5 PM","Thu 9 AM - 5 PM","Fri 9 AM - 6 PM","Sat 9 AM - 1 PM"],"address":"500 S. Washington ST Alexandria VA 22314","longitude":-77.047769,"latitude":38.8000264},{"name":"FRANCONIA","hours":["Sun","Mon 9 AM - 5 PM","Tue 9 AM - 5 PM","Wed 9 AM - 5 PM","Thu 9 AM - 5 PM","Fri 9 AM - 6 PM","Sat 9 AM - 1 PM"],"address":"5511 Franconia Road ALEXANDRIA VA 22310","longitude":-77.1301155,"latitude":38.7837822},{"name":"MAGRUDER HOUSE","hours":["Sun","Mon 9 AM - 5 PM","Tue 9 AM - 5 PM","Wed 9 AM - 5 PM","Thu 9 AM - 5 PM","Fri 9 AM - 6 PM","Sat 9 AM - 1 PM"],"address":"7340 Westlake Terrace Bethesda MD 20817","longitude":-77.1478742,"latitude":39.0269899},{"name":"FAIR CITY MALL","hours":["Sun","Mon 9 AM - 5 PM","Tue 9 AM - 5 PM","Wed 9 AM - 5 PM","Thu 9 AM - 5 PM","Fri 9 AM - 6 PM","Sat 9 AM - 1 PM"],"address":"3941 Pickett Road Fairfax VA 22031","longitude":-77.2722943,"latitude":38.8442577},{"name":"POTOMAC","hours":["Sun","Mon 9 AM - 5 PM","Tue 9 AM - 5 PM","Wed 9 AM - 5 PM","Thu 9 AM - 5 PM","Fri 9 AM - 6 PM","Sat 9 AM - 1 PM"],"address":"10211 River Road Potomac MD 20854","longitude":-77.2092039,"latitude":39.0184222},{"name":"ANACOSTIA","hours":["Sun","Mon 9 AM - 5 PM","Tue 9 AM - 5 PM","Wed 9 AM - 5 PM","Thu 9 AM - 5 PM","Fri 9 AM - 6 PM","Sat 9 AM - 1 PM"],"address":"2831 Alabama AVE, SE Washington DC 20020","longitude":-76.9675932,"latitude":38.8585879},{"name":"COMMERCE STREET","hours":["Sun","Mon 9 AM - 5 PM","Tue 9 AM - 5 PM","Wed 9 AM - 5 PM","Thu 9 AM - 5 PM","Fri 9 AM - 6 PM","Sat 9 AM - 1 PM"],"address":"6949 Commerce ST Springfield VA 22150","longitude":-77.1859315,"latitude":38.7818524},{"name":"KENSINGTON","hours":["Sun","Mon 9 AM - 5 PM","Tue 9 AM - 5 PM","Wed 9 AM - 5 PM","Thu 9 AM - 5 PM","Fri 9 AM - 6 PM","Sat 9 AM - 1 PM"],"address":"10707 Connecticut Ave Kensington MD 20895","longitude":-77.074717,"latitude":39.031229},{"name":"ARLISS","hours":["Sun","Mon 9 AM - 6 PM","Tue 9 AM - 6 PM","Wed 9 AM - 6 PM","Thu 9 AM - 6 PM","Fri 9 AM - 6 PM","Sat 9 AM - 1 PM"],"address":"8740 Arliss ST Silver Spring MD 20901","longitude":-77.0018648,"latitude":38.9996868},{"name":"HAMPSHIRE-LANGLEY","hours":["Sun","Mon 9 AM - 6 PM","Tue 9 AM - 6 PM","Wed 9 AM - 6 PM","Thu 9 AM - 6 PM","Fri 9 AM - 6 PM","Sat 9 AM - 1 PM"],"address":"1181 University Boulevard Takoma Park MD 20912","longitude":-76.9885818,"latitude":38.9884198},{"name":"CABIN JOHN","hours":["Sun","Mon 9 AM - 5 PM","Tue 9 AM - 5 PM","Wed 9 AM - 5 PM","Thu 9 AM - 5 PM","Fri 9 AM - 6 PM","Sat 9 AM - 1 PM"],"address":"7941 Tuckerman Lane Potomac MD 20854","longitude":-77.1569827,"latitude":39.041066},{"name":"CHAIN BRIDGE ROAD/OAKTON","hours":["Sun","Mon 9 AM - 5 PM","Tue 9 AM - 5 PM","Wed 9 AM - 5 PM","Thu 9 AM - 5 PM","Fri 9 AM - 6 PM","Sat 9 AM - 1 PM"],"address":"2938 Chain Bridge Rd Oakton VA 22124","longitude":-77.3005261,"latitude":38.8816527},{"name":"BEACON MALL","hours":["Sun","Mon 9 AM - 5 PM","Tue 9 AM - 5 PM","Wed 9 AM - 5 PM","Thu 9 AM - 5 PM","Fri 9 AM - 6 PM","Sat 9 AM - 1 PM"],"address":"6790 Richmond Highway Alexandria VA 22306","longitude":-77.0822216,"latitude":38.7699643},{"name":"NICHOLSON LANE/ROCKVILLE","hours":["Sun","Mon 9 AM - 5 PM","Tue 9 AM - 5 PM","Wed 9 AM - 5 PM","Thu 9 AM - 5 PM","Fri 9 AM - 6 PM","Sat 9 AM - 1 PM"],"address":"5041 Nicholson Lane Rockville MD 20852","longitude":-77.1039959,"latitude":39.0466173},{"name":"OLD GEORGETOWN ROAD/ROCKVILLE","hours":["Sun","Mon 9 AM - 5 PM","Tue 9 AM - 5 PM","Wed 9 AM - 5 PM","Thu 9 AM - 5 PM","Fri 9 AM - 6 PM","Sat 9 AM - 1 PM"],"address":"11575 Old Georgetown Road Rockville MD 20852","longitude":-77.117705,"latitude":39.048323},{"name":"FOUR CORNERS","hours":["Sun","Mon 9 AM - 5 PM","Tue 9 AM - 5 PM","Wed 9 AM - 5 PM","Thu 9 AM - 5 PM","Fri 9 AM - 6 PM","Sat 9 AM - 1 PM"],"address":"115 University Boulevard W. Silver Spring MD 20901","longitude":-77.014313,"latitude":39.0216274},{"name":"GEORGIA AVENUE","hours":["Sun","Mon 9 AM - 6 PM","Tue 9 AM - 6 PM","Wed 9 AM - 6 PM","Thu 9 AM - 6 PM","Fri 9 AM - 6 PM","Sat 9 AM - 1 PM"],"address":"11241 Georgia AVE Wheaton MD 20902","longitude":-77.0509576,"latitude":39.0399013},{"name":"PRINCE GEORGE'S PLAZA","hours":["Sun","Mon 9 AM - 6 PM","Tue 9 AM - 6 PM","Wed 9 AM - 6 PM","Thu 9 AM - 6 PM","Fri 9 AM - 6 PM","Sat 9 AM - 1 PM"],"address":"6400 Belcrest Road Hyattsville MD 20782","longitude":-76.950817,"latitude":38.965015},{"name":"OXON HILL","hours":["Sun","Mon 9 AM - 5 PM","Tue 9 AM - 5 PM","Wed 9 AM - 5 PM","Thu 9 AM - 5 PM","Fri 9 AM - 6 PM","Sat 9 AM - 1 PM"],"address":"6197 Oxon Hill Road Oxon Hill MD 20745","longitude":-76.9830446,"latitude":38.8041663},{"name":"FLAGSHIP","hours":["Sun","Mon 9 AM - 5 PM","Tue 9 AM - 5 PM","Wed 9 AM - 5 PM","Thu 9 AM - 5 PM","Fri 9 AM - 6 PM","Sat 9 AM - 1 PM"],"address":"12097 Rockville Pike Rockville MD 20852","longitude":-77.1181744,"latitude":39.0556529},{"name":"OLD KEENE MILL","hours":["Sun","Mon 9 AM - 5 PM","Tue 9 AM - 5 PM","Wed 9 AM - 5 PM","Thu 9 AM - 5 PM","Fri 9 AM - 6 PM","Sat 9 AM - 1 PM"],"address":"8436 Old Keene Mill Road Springfield VA 22152","longitude":-77.2364017,"latitude":38.7790146},{"name":"BOULEVARD SHOPPING CENTER/FAIRFAX","hours":["Sun","Mon 9 AM - 5 PM","Tue 9 AM - 5 PM","Wed 9 AM - 5 PM","Thu 9 AM - 5 PM","Fri 9 AM - 6 PM","Sat 9 AM - 1 PM"],"address":"10670 Fairfax Boulevard Fairfax VA 22030","longitude":-77.31286,"latitude":38.856599},{"name":"KEMP MILL","hours":["Sun","Mon 9 AM - 5 PM","Tue 9 AM - 5 PM","Wed 9 AM - 5 PM","Thu 9 AM - 5 PM","Fri 9 AM - 6 PM","Sat 9 AM - 1 PM"],"address":"1327 Lamberton Drive Silver Spring MD 20902","longitude":-77.0314488,"latitude":39.0411056},{"name":"VEIRS MILL","hours":["Sun","Mon 9 AM - 6 PM","Tue 9 AM - 6 PM","Wed 9 AM - 6 PM","Thu 9 AM - 6 PM","Fri 9 AM - 6 PM","Sat 9 AM - 1 PM"],"address":"12228 Veirs Mill Road Silver Spring MD 20906","longitude":-77.0851118,"latitude":39.0572185},{"name":"GREAT FALLS","hours":["Sun","Mon 9 AM - 5 PM","Tue 9 AM - 5 PM","Wed 9 AM - 5 PM","Thu 9 AM - 5 PM","Fri 9 AM - 6 PM","Sat 9 AM - 1 PM"],"address":"9883 Georgetown Pike Great Falls VA 22066","longitude":-77.287893,"latitude":38.9972567},{"name":"SILVER HILL","hours":["Sun","Mon 9 AM - 5 PM","Tue 9 AM - 5 PM","Wed 9 AM - 5 PM","Thu 9 AM - 5 PM","Fri 9 AM - 6 PM","Sat 9 AM - 1 PM"],"address":"3601 St. Barnabas Road Silver Hill MD 20746","longitude":-76.9424773,"latitude":38.8402846},{"name":"CONGRESSIONAL PLAZA","hours":["Sun","Mon 9 AM - 5 PM","Tue 9 AM - 5 PM","Wed 9 AM - 5 PM","Thu 9 AM - 5 PM","Fri 9 AM - 6 PM","Sat 9 AM - 1 PM"],"address":"101 Halpine Road Rockville MD 20852","longitude":-77.1247908,"latitude":39.0617521},{"name":"UNIVERSITY OF MARYLAND","hours":["Sun","Mon 9 AM - 5 PM","Tue 9 AM - 5 PM","Wed 9 AM - 5 PM","Thu 9 AM - 5 PM","Fri 9 AM - 6 PM","Sat"],"address":"P.O. Box 170  College Park MD 20742","longitude":-76.93776,"latitude":38.9896967},{"name":"HILLANDALE","hours":["Sun","Mon 9 AM - 6 PM","Tue 9 AM - 6 PM","Wed 9 AM - 6 PM","Thu 9 AM - 6 PM","Fri 9 AM - 6 PM","Sat 9 AM - 1 PM"],"address":"10159 New Hampshire AVE Silver Spring MD 20903","longitude":-76.9768845,"latitude":39.0213979},{"name":"GLENMONT","hours":["Sun","Mon 9 AM - 5 PM","Tue 9 AM - 5 PM","Wed 9 AM - 5 PM","Thu 9 AM - 5 PM","Fri 9 AM - 6 PM","Sat 9 AM - 1 PM"],"address":"2315 Randolph Road Silver Spring MD 20902","longitude":-77.0489393,"latitude":39.0590308},{"name":"BURKE TOWN PLAZA","hours":["Sun","Mon 9 AM - 5 PM","Tue 9 AM - 5 PM","Wed 9 AM - 5 PM","Thu 9 AM - 5 PM","Fri 9 AM - 6 PM","Sat 9 AM - 1 PM"],"address":"9564 Old Keene Mill Rd Burke VA 22015","longitude":-77.2740435,"latitude":38.7788988},{"name":"CAPITAL PLAZA","hours":["Sun","Mon 9 AM - 6 PM","Tue 9 AM - 6 PM","Wed 9 AM - 6 PM","Thu 9 AM - 6 PM","Fri 9 AM - 6 PM","Sat 9 AM - 1 PM"],"address":"6206 Annapolis Road Landover Hills MD 20784","longitude":-76.9083224,"latitude":38.9395921},{"name":"WHITE OAK","hours":["Sun","Mon 9 AM - 5 PM","Tue 9 AM - 5 PM","Wed 9 AM - 5 PM","Thu 9 AM - 5 PM","Fri 9 AM - 6 PM","Sat 9 AM - 1 PM"],"address":"11261 New Hampshire Ave Silver Spring MD 20904","longitude":-76.9914264,"latitude":39.0420539},{"name":"ASPEN HILL","hours":["Sun","Mon 9 AM - 6 PM","Tue 9 AM - 6 PM","Wed 9 AM - 6 PM","Thu 9 AM - 6 PM","Fri 9 AM - 6 PM","Sat 9 AM - 1 PM"],"address":"13641 Connecticut AVE Wheaton MD 20906","longitude":-77.079345,"latitude":39.0787953},{"name":"SARATOGA","hours":["Sun","Mon 9 AM - 5 PM","Tue 9 AM - 5 PM","Wed 9 AM - 5 PM","Thu 9 AM - 5 PM","Fri 9 AM - 6 PM","Sat 9 AM - 1 PM"],"address":"8098 Rolling Road Springfield VA 22153","longitude":-77.2116939,"latitude":38.7393933},{"name":"ROCKSHIRE","hours":["Sun","Mon 9 AM - 5 PM","Tue 9 AM - 5 PM","Wed 9 AM - 5 PM","Thu 9 AM - 5 PM","Fri 9 AM - 6 PM","Sat 9 AM - 1 PM"],"address":"2409 Wootton Parkway Rockville MD 20850","longitude":-77.1856214,"latitude":39.0808583},{"name":"HUNGERFORD","hours":["Sun","Mon 9 AM - 6 PM","Tue 9 AM - 6 PM","Wed 9 AM - 6 PM","Thu 9 AM - 6 PM","Fri 9 AM - 6 PM","Sat 9 AM - 1 PM"],"address":"387 Hungerford Drive Rockville MD 20850","longitude":-77.1502326,"latitude":39.0883223},{"name":"FAIRFAX CORNER","hours":["Sun","Mon 9 AM - 5 PM","Tue 9 AM - 5 PM","Wed 9 AM - 5 PM","Thu 9 AM - 5 PM","Fri 9 AM - 6 PM","Sat 9 AM - 1 PM"],"address":"11873 Grand Commons AVE Fairfax VA 22033","longitude":-77.3544726,"latitude":38.8582893},{"name":"GREAT EASTERN","hours":["Sun","Mon 9 AM - 6 PM","Tue 9 AM - 6 PM","Wed 9 AM - 6 PM","Thu 9 AM - 6 PM","Fri 9 AM - 6 PM","Sat 9 AM - 1 PM"],"address":"6335 Marlboro Pike District Heights MD 20747","longitude":-76.8968,"latitude":38.8529185},{"name":"SPECTRUM","hours":["Sun","Mon 9 AM - 5 PM","Tue 9 AM - 5 PM","Wed 9 AM - 5 PM","Thu 9 AM - 5 PM","Fri 9 AM - 6 PM","Sat 9 AM - 1 PM"],"address":"11874 Spectrum Drive Reston VA 20190","longitude":-77.3554856,"latitude":38.960734},{"name":"RESTON TOWN CENTER","hours":["Sun","Mon 9 AM - 5 PM","Tue 9 AM - 5 PM","Wed 9 AM - 5 PM","Thu 9 AM - 5 PM","Fri 9 AM - 6 PM","Sat"],"address":"1824 Library ST Reston VA 20190","longitude":-77.3586312,"latitude":38.9585119},{"name":"ROCK CREEK VILLAGE","hours":["Sun","Mon 9 AM - 5 PM","Tue 9 AM - 5 PM","Wed 9 AM - 5 PM","Thu 9 AM - 5 PM","Fri 9 AM - 6 PM","Sat 9 AM - 1 PM"],"address":"5552 Norbeck Road Rockville MD 20853","longitude":-77.1125617,"latitude":39.0951431},{"name":"GREENBELT PLAZA MALL","hours":["Sun","Mon 9 AM - 5 PM","Tue 9 AM - 5 PM","Wed 9 AM - 5 PM","Thu 9 AM - 5 PM","Fri 9 AM - 6 PM","Sat 9 AM - 1 PM"],"address":"6226 Greenbelt Road Greenbelt MD 20770","longitude":-76.9087504,"latitude":38.9977692},{"name":"COLESVILLE","hours":["Sun","Mon 9 AM - 6 PM","Tue 9 AM - 6 PM","Wed 9 AM - 6 PM","Thu 9 AM - 6 PM","Fri 9 AM - 6 PM","Sat 9 AM - 1 PM"],"address":"13301 New Hampshire AVE Silver Spring MD 20904","longitude":-77.0025975,"latitude":39.0731993},{"name":"PENDER VILLAGE CENTER/FAIRFAX","hours":["Sun","Mon 9 AM - 5 PM","Tue 9 AM - 5 PM","Wed 9 AM - 5 PM","Thu 9 AM - 5 PM","Fri 9 AM - 6 PM","Sat 9 AM - 1 PM"],"address":"3907 Fair Ridge Drive Fairfax VA 22033","longitude":-77.3730126,"latitude":38.8722118},{"name":"WEST TECH PARK/SILVER SPRING","hours":["Sun","Mon 9 AM - 6 PM","Tue 9 AM - 6 PM","Wed 9 AM - 6 PM","Thu 9 AM - 6 PM","Fri 9 AM - 6 PM","Sat 9 AM - 1 PM"],"address":"12293 Tech Road Silver Spring MD 20904","longitude":-76.9670436,"latitude":39.0576262},{"name":"PLAZA DEL MERCADO","hours":["Sun","Mon 9 AM - 5 PM","Tue 9 AM - 5 PM","Wed 9 AM - 5 PM","Thu 9 AM - 5 PM","Fri 9 AM - 6 PM","Sat 9 AM - 1 PM"],"address":"2215 Bel Pre Road Wheaton MD 20906","longitude":-77.0467852,"latitude":39.0905382},{"name":"TRAVILLE VILLAGE CENTER","hours":["Sun","Mon 9 AM - 5 PM","Tue 9 AM - 5 PM","Wed 9 AM - 5 PM","Thu 9 AM - 5 PM","Fri 9 AM - 6 PM","Sat 9 AM - 1 PM"],"address":"9761 Traville Gateway Drive Rockville MD 20850","longitude":-77.202846,"latitude":39.0926471},{"name":"FALLS GROVE","hours":["Sun","Mon 9 AM - 5 PM","Tue 9 AM - 5 PM","Wed 9 AM - 5 PM","Thu 9 AM - 5 PM","Fri 9 AM - 6 PM","Sat 9 AM - 1 PM"],"address":"14943 Shady Grove Road Rockville MD 20850","longitude":-77.1935101,"latitude":39.0976479},{"name":"LEISURE WORLD","hours":["Sun","Mon 9 AM - 5 PM","Tue 9 AM - 5 PM","Wed 9 AM - 5 PM","Thu 9 AM - 5 PM","Fri 9 AM - 6 PM","Sat 9 AM - 1 PM"],"address":"3828 International Drive Silver Spring MD 20906","longitude":-77.0757311,"latitude":39.1036913},{"name":"FORT WASHINGTON","hours":["Sun","Mon 9 AM - 5 PM","Tue 9 AM - 5 PM","Wed 9 AM - 5 PM","Thu 9 AM - 5 PM","Fri 9 AM - 6 PM","Sat 9 AM - 1 PM"],"address":"980 E. Swan Creek Road Fort Washington MD 20744","longitude":-76.9917377,"latitude":38.7255719},{"name":"BELTSVILLE","hours":["Sun","Mon 9 AM - 5 PM","Tue 9 AM - 5 PM","Wed 9 AM - 5 PM","Thu 9 AM - 5 PM","Fri 9 AM - 6 PM","Sat 9 AM - 1 PM"],"address":"10800 Baltimore AVE Beltsville MD 20705","longitude":-76.912493,"latitude":39.031856},{"name":"GREENWAY CENTER","hours":["Sun","Mon 9 AM - 5 PM","Tue 9 AM - 5 PM","Wed 9 AM - 5 PM","Thu 9 AM - 5 PM","Fri 9 AM - 6 PM","Sat 9 AM - 1 PM"],"address":"7515 Greenbelt Road Greenbelt MD 20770","longitude":-76.8780764,"latitude":38.9935004},{"name":"KING FARM","hours":["Sun","Mon 9 AM - 5 PM","Tue 9 AM - 5 PM","Wed 9 AM - 5 PM","Thu 9 AM - 5 PM","Fri 9 AM - 6 PM","Sat 9 AM - 1 PM"],"address":"802 Pleasant Drive Rockville MD 20850","longitude":-77.1713737,"latitude":39.1138753},{"name":"WOODLAND CROSSING/HERNDON","hours":["Sun","Mon 9 AM - 5 PM","Tue 9 AM - 5 PM","Wed 9 AM - 5 PM","Thu 9 AM - 5 PM","Fri 9 AM - 6 PM","Sat 9 AM - 1 PM"],"address":"12951 Highland Crossing Dr. Suite A Herndon VA 20171","longitude":-77.3945092,"latitude":38.9491429},{"name":"LORTON","hours":["Sun","Mon 9 AM - 5 PM","Tue 9 AM - 5 PM","Wed 9 AM - 5 PM","Thu 9 AM - 5 PM","Fri 9 AM - 6 PM","Sat 9 AM - 1 PM"],"address":"8981 Ox Road Lorton VA 22079","longitude":-77.2623652,"latitude":38.7140667},{"name":"FRANKLIN FARM","hours":["Sun","Mon 9 AM - 5 PM","Tue 9 AM - 5 PM","Wed 9 AM - 5 PM","Thu 9 AM - 5 PM","Fri 9 AM - 6 PM","Sat 9 AM - 1 PM"],"address":"13344-A Franklin Farm Road Herndon VA 20171","longitude":-77.4083935,"latitude":38.9072869},{"name":"HERNDON","hours":["Sun","Mon 9 AM - 5 PM","Tue 9 AM - 5 PM","Wed 9 AM - 5 PM","Thu 9 AM - 5 PM","Fri 9 AM - 6 PM","Sat 9 AM - 1 PM"],"address":"1201 Elden ST Herndon VA 20170","longitude":-77.3988895,"latitude":38.9622352},{"name":"STERLING TOWN CENTER","hours":["Sun","Mon 9 AM - 5 PM","Tue 9 AM - 5 PM","Wed 9 AM - 5 PM","Thu 9 AM - 5 PM","Fri 9 AM - 6 PM","Sat 9 AM - 1 PM"],"address":"21700 Town Center Plaza Sterling VA 20164","longitude":-77.4052123,"latitude":39.0334919},{"name":"MUDDY BRANCH","hours":["Sun","Mon 9 AM - 5 PM","Tue 9 AM - 5 PM","Wed 9 AM - 5 PM","Thu 9 AM - 5 PM","Fri 9 AM - 6 PM","Sat 9 AM - 1 PM"],"address":"812 Muddy Branch Road Gaithersburg MD 20878","longitude":-77.2159336,"latitude":39.1143906},{"name":"LARGO TOWN CENTER","hours":["Sun","Mon 9 AM - 6 PM","Tue 9 AM - 6 PM","Wed 9 AM - 6 PM","Thu 9 AM - 6 PM","Fri 9 AM - 6 PM","Sat 9 AM - 1 PM"],"address":"1040 Largo Center Drive Largo MD 20774","longitude":-76.8372362,"latitude":38.9023282},{"name":"SHADY GROVE","hours":["Sun","Mon 9 AM - 5 PM","Tue 9 AM - 5 PM","Wed 9 AM - 5 PM","Thu 9 AM - 5 PM","Fri 9 AM - 6 PM","Sat 9 AM - 1 PM"],"address":"16827 Crabbs Branch Way Rockville MD 20855","longitude":-77.1680586,"latitude":39.1300315},{"name":"CLINTON CROSSING","hours":["Sun","Mon 9 AM - 5 PM","Tue 9 AM - 5 PM","Wed 9 AM - 5 PM","Thu 9 AM - 5 PM","Fri 9 AM - 6 PM","Sat 9 AM - 1 PM"],"address":"8845 Branch AVE Clinton MD 20735","longitude":-76.8797199,"latitude":38.7511838},{"name":"DARNESTOWN","hours":["Sun","Mon 9 AM - 5 PM","Tue 9 AM - 5 PM","Wed 9 AM - 5 PM","Thu 9 AM - 5 PM","Fri 9 AM - 6 PM","Sat 9 AM - 1 PM"],"address":"12201 Darnestown Road Gaithersburg MD 20878","longitude":-77.253083,"latitude":39.118362},{"name":"KENTLANDS","hours":["Sun","Mon 9 AM - 6 PM","Tue 9 AM - 6 PM","Wed 9 AM - 6 PM","Thu 9 AM - 6 PM","Fri 9 AM - 6 PM","Sat 9 AM - 1 PM"],"address":"317 Kentlands Boulevard Gaithersburg MD 20878","longitude":-77.2382506,"latitude":39.123809},{"name":"CHANTILLY","hours":["Sun","Mon 9 AM - 5 PM","Tue 9 AM - 5 PM","Wed 9 AM - 5 PM","Thu 9 AM - 5 PM","Fri 9 AM - 6 PM","Sat 9 AM - 1 PM"],"address":"14001 Lee Jackson Memorial Highway Chantilly VA 20151","longitude":-77.4317798,"latitude":38.8938701},{"name":"VISTA GARDENS/LANHAM","hours":["Sun","Mon 9 AM - 5 PM","Tue 9 AM - 5 PM","Wed 9 AM - 5 PM","Thu 9 AM - 5 PM","Fri 9 AM - 6 PM","Sat 9 AM - 1 PM"],"address":"10651 Martin Luther King, Jr. Highway Bowie MD 20720","longitude":-76.822688,"latitude":38.955353},{"name":"POTOMAC RUN","hours":["Sun","Mon 9 AM - 5 PM","Tue 9 AM - 5 PM","Wed 9 AM - 5 PM","Thu 9 AM - 5 PM","Fri 9 AM - 6 PM","Sat 9 AM - 1 PM"],"address":"46160 Potomac Run Plaza Sterling VA 20164","longitude":-77.4022848,"latitude":39.0252633},{"name":"CENTREVILLE","hours":["Sun","Mon 9 AM - 5 PM","Tue 9 AM - 5 PM","Wed 9 AM - 5 PM","Thu 9 AM - 5 PM","Fri 9 AM - 6 PM","Sat 9 AM - 1 PM"],"address":"5902 Old Centreville Road Centreville VA 20121","longitude":-77.43151,"latitude":38.8357817},{"name":"CASCADES","hours":["Sun","Mon 9 AM - 5 PM","Tue 9 AM - 5 PM","Wed 9 AM - 5 PM","Thu 9 AM - 5 PM","Fri 9 AM - 6 PM","Sat 9 AM - 1 PM"],"address":"20970 Southbank ST Potomac Falls VA 20165","longitude":-77.3977926,"latitude":39.0347727},{"name":"DIAMOND SQUARE","hours":["Sun","Mon 9 AM - 5 PM","Tue 9 AM - 5 PM","Wed 9 AM - 5 PM","Thu 9 AM - 5 PM","Fri 9 AM - 6 PM","Sat 9 AM - 1 PM"],"address":"12 Bureau Drive Gaithersburg MD 20878","longitude":-77.2177942,"latitude":39.1428654},{"name":"OLNEY","hours":["Sun","Mon 9 AM - 5 PM","Tue 9 AM - 5 PM","Wed 9 AM - 5 PM","Thu 9 AM - 5 PM","Fri 9 AM - 6 PM","Sat 9 AM - 1 PM"],"address":"17831 Georgia AVE Olney MD 20832","longitude":-77.0664773,"latitude":39.1501836},{"name":"OLNEY TOWN CENTER","hours":["Sun","Mon 9 AM - 5 PM","Tue 9 AM - 5 PM","Wed 9 AM - 5 PM","Thu 9 AM - 5 PM","Fri 9 AM - 6 PM","Sat 9 AM - 1 PM"],"address":"18104 Town Center Drive Olney MD 20832","longitude":-77.0626933,"latitude":39.1516869},{"name":"Burtonsville Town Square","hours":["Sun","Mon 9 AM - 5 PM","Tue 9 AM - 5 PM","Wed 9 AM - 5 PM","Thu 9 AM - 5 PM","Fri 9 AM - 6 PM","Sat 9 AM - 1 PM"],"address":"15664 Old Columbia Pike Burtonsville MD 20866","longitude":-76.9337911,"latitude":39.1113178},{"name":"DULLES INTERNATIONAL","hours":["Sun 11 AM - 4 PM","Mon 8 AM - 6 PM","Tue 8 AM - 6 PM","Wed 8 AM - 6 PM","Thu 8 AM - 6 PM","Fri 8 AM - 6 PM","Sat 8 AM - 4 PM"],"address":"1 Saarinen Circle Dulles VA 20166","longitude":-77.4480674,"latitude":38.9525892},{"name":"GAITHERSBURG","hours":["Sun","Mon 9 AM - 6 PM","Tue 9 AM - 6 PM","Wed 9 AM - 6 PM","Thu 9 AM - 6 PM","Fri 9 AM - 6 PM","Sat 9 AM - 1 PM"],"address":"509 N. Frederick AVE Gaithersburg MD 20877","longitude":-77.2106982,"latitude":39.1518425},{"name":"STONE ROAD VILLAGE","hours":["Sun","Mon 9 AM - 5 PM","Tue 9 AM - 5 PM","Wed 9 AM - 5 PM","Thu 9 AM - 5 PM","Fri 9 AM - 6 PM","Sat 9 AM - 1 PM"],"address":"5601 Stone Road Centreville VA 20120","longitude":-77.4495518,"latitude":38.8549986},{"name":"DULLES TOWN CROSSING","hours":["Sun","Mon 9 AM - 5 PM","Tue 9 AM - 5 PM","Wed 9 AM - 5 PM","Thu 9 AM - 5 PM","Fri 9 AM - 6 PM","Sat 9 AM - 1 PM"],"address":"45545 Dulles Eastern Plaza Sterling VA 20166","longitude":-77.4243533,"latitude":39.024146},{"name":"DULLES 28/STERLING","hours":["Sun","Mon 9 AM - 5 PM","Tue 9 AM - 5 PM","Wed 9 AM - 5 PM","Thu 9 AM - 5 PM","Fri 9 AM - 6 PM","Sat 9 AM - 1 PM"],"address":"21990 Colorado Drive Sterling VA 20166","longitude":-77.4376746,"latitude":39.0077102},{"name":"DULLES TOWN CENTER","hours":["Sun","Mon 9 AM - 5 PM","Tue 9 AM - 5 PM","Wed 9 AM - 5 PM","Thu 9 AM - 5 PM","Fri 9 AM - 6 PM","Sat 9 AM - 1 PM"],"address":"21100 Dulles Town Circle, Suite 154 Dulles VA 20166","longitude":-77.4234606,"latitude":39.0318656},{"name":"CONTEE ROAD / LAUREL","hours":["Sun","Mon 9 AM - 5 PM","Tue 9 AM - 5 PM","Wed 9 AM - 5 PM","Thu 9 AM - 5 PM","Fri 9 AM - 6 PM","Sat 9 AM - 1 PM"],"address":"13600 Baltimore AVE Suite 800 Laurel MD 20707","longitude":-76.8694496,"latitude":39.0778305},{"name":"CLOPPER MILL","hours":["Sun","Mon 9 AM - 5 PM","Tue 9 AM - 5 PM","Wed 9 AM - 5 PM","Thu 9 AM - 5 PM","Fri 9 AM - 6 PM","Sat 9 AM - 1 PM"],"address":"18006 Mateny Road Germantown MD 20874","longitude":-77.2747576,"latitude":39.1475345},{"name":"MONTGOMERY VILLAGE","hours":["Sun","Mon 9 AM - 5 PM","Tue 9 AM - 5 PM","Wed 9 AM - 5 PM","Thu 9 AM - 5 PM","Fri 9 AM - 6 PM","Sat 9 AM - 1 PM"],"address":"10011 Stedwick Road Gaithersburg MD 20886","longitude":-77.207241,"latitude":39.170525},{"name":"KINGSVIEW/GERMANTOWN","hours":["Sun","Mon 9 AM - 5 PM","Tue 9 AM - 5 PM","Wed 9 AM - 5 PM","Thu 9 AM - 5 PM","Fri 9 AM - 6 PM","Sat 9 AM - 1 PM"],"address":"13408 Kingsview Village Ave Germantown MD 20874","longitude":-77.2792611,"latitude":39.1598496},{"name":"THE GLEN","hours":["Sun","Mon 9 AM - 5 PM","Tue 9 AM - 5 PM","Wed 9 AM - 5 PM","Thu 9 AM - 5 PM","Fri 9 AM - 6 PM","Sat 9 AM - 1 PM"],"address":"4229 Merchant Plaza Woodbridge VA 22192","longitude":-77.3344445,"latitude":38.6735059},{"name":"Eastern Marketplace/Chantilly","hours":["Sun","Mon 9 AM - 5 PM","Tue 9 AM - 5 PM","Wed 9 AM - 5 PM","Thu 9 AM - 5 PM","Fri 9 AM - 6 PM","Sat 9 AM - 1 PM"],"address":"25400 Eastern Marketplace Plaza Chantilly VA 20152","longitude":-77.487862,"latitude":38.9145961},{"name":"LAUREL SHOPPING CENTER","hours":["Sun","Mon 9 AM - 6 PM","Tue 9 AM - 6 PM","Wed 9 AM - 6 PM","Thu 9 AM - 6 PM","Fri 9 AM - 6 PM","Sat 9 AM - 1 PM"],"address":"1025 Washington Blvd Laurel MD 20707","longitude":-76.8538429,"latitude":39.0951371},{"name":"GOSHEN","hours":["Sun","Mon 9 AM - 5 PM","Tue 9 AM - 5 PM","Wed 9 AM - 5 PM","Thu 9 AM - 5 PM","Fri 9 AM - 6 PM","Sat 9 AM - 1 PM"],"address":"20000 Goshen Road Gaithersburg MD 20879","longitude":-77.1890355,"latitude":39.1858304},{"name":"SHOPS AT COUNTY CENTER/HOADLY","hours":["Sun","Mon 9 AM - 5 PM","Tue 9 AM - 5 PM","Wed 9 AM - 5 PM","Thu 9 AM - 5 PM","Fri 9 AM - 6 PM","Sat 9 AM - 1 PM"],"address":"12891 Galveston Court Manassas VA 20112","longitude":-77.3638861,"latitude":38.6788052},{"name":"GERMANTOWN TOWN CENTER","hours":["Sun","Mon 9 AM - 6 PM","Tue 9 AM - 6 PM","Wed 9 AM - 6 PM","Thu 9 AM - 6 PM","Fri 9 AM - 6 PM","Sat 9 AM - 1 PM"],"address":"19801 Century Boulevard Germantown MD 20874","longitude":-77.2680066,"latitude":39.1803311},{"name":"SIGNAL HILL","hours":["Sun","Mon 9 AM - 5 PM","Tue 9 AM - 5 PM","Wed 9 AM - 5 PM","Thu 9 AM - 5 PM","Fri 9 AM - 6 PM","Sat 9 AM - 1 PM"],"address":"9560 Liberia AVE Manassas VA 20110","longitude":-77.4498947,"latitude":38.7492746},{"name":"ASHBURN TOWN SQUARE","hours":["Sun","Mon 9 AM - 5 PM","Tue 9 AM - 5 PM","Wed 9 AM - 5 PM","Thu 9 AM - 5 PM","Fri 9 AM - 6 PM","Sat 9 AM - 1 PM"],"address":"43931 Farmwell Hunt Plaza Ashburn VA 20147","longitude":-77.4811038,"latitude":39.0228517},{"name":"WOODBRIDGE","hours":["Sun","Mon 9 AM - 5 PM","Tue 9 AM - 5 PM","Wed 9 AM - 5 PM","Thu 9 AM - 5 PM","Fri 9 AM - 6 PM","Sat 9 AM - 1 PM"],"address":"14901 Neighborhood Way Woodbridge VA 22191","longitude":-77.2887605,"latitude":38.6303597},{"name":"ASHBURN VILLAGE","hours":["Sun","Mon 9 AM - 5 PM","Tue 9 AM - 5 PM","Wed 9 AM - 5 PM","Thu 9 AM - 5 PM","Fri 9 AM - 6 PM","Sat 9 AM - 1 PM"],"address":"44151 Ashburn Shopping Plaza Ashburn VA 20147","longitude":-77.4737347,"latitude":39.0431277},{"name":"CHESHIRE STATION","hours":["Sun","Mon 9 AM - 5 PM","Tue 9 AM - 5 PM","Wed 9 AM - 5 PM","Thu 9 AM - 5 PM","Fri 9 AM - 6 PM","Sat 9 AM - 1 PM"],"address":"4101 Cheshire Station Plaza Dale City VA 22193","longitude":-77.333346,"latitude":38.6468711},{"name":"BOWIE","hours":["Sun","Mon 9 AM - 5 PM","Tue 9 AM - 5 PM","Wed 9 AM - 5 PM","Thu 9 AM - 5 PM","Fri 9 AM - 6 PM","Sat 9 AM - 1 PM"],"address":"15460 Annapolis Road Bowie MD 20715","longitude":-76.7324934,"latitude":38.9801487},{"name":"CORRIDOR MARKETPLACE","hours":["Sun","Mon 9 AM - 5 PM","Tue 9 AM - 5 PM","Wed 9 AM - 5 PM","Thu 9 AM - 5 PM","Fri 9 AM - 6 PM","Sat 9 AM - 1 PM"],"address":"3355 Corridor Marketplace Laurel MD 20724","longitude":-76.808158,"latitude":39.0978281},{"name":"NEELSVILLE","hours":["Sun","Mon 9 AM - 5 PM","Tue 9 AM - 5 PM","Wed 9 AM - 5 PM","Thu 9 AM - 5 PM","Fri 9 AM - 6 PM","Sat 9 AM - 1 PM"],"address":"21117 Frederick Road Germantown MD 20876","longitude":-77.2453315,"latitude":39.2043169},{"name":"COLLINGTON PLAZA","hours":["Sun","Mon 9 AM - 5 PM","Tue 9 AM - 5 PM","Wed 9 AM - 5 PM","Thu 9 AM - 5 PM","Fri 9 AM - 6 PM","Sat 9 AM - 1 PM"],"address":"3400 Crain Highway Bowie MD 20716","longitude":-76.7186345,"latitude":38.9374507},{"name":"BROADLANDS","hours":["Sun","Mon 9 AM - 5 PM","Tue 9 AM - 5 PM","Wed 9 AM - 5 PM","Thu 9 AM - 5 PM","Fri 9 AM - 6 PM","Sat 9 AM - 1 PM"],"address":"43200 Broadlands Center Plaza Ashburn VA 20148","longitude":-77.508186,"latitude":39.0250957},{"name":"WALDORF MARKETPLACE","hours":["Sun","Mon 9 AM - 5 PM","Tue 9 AM - 5 PM","Wed 9 AM - 5 PM","Thu 9 AM - 5 PM","Fri 9 AM - 6 PM","Sat 9 AM - 1 PM"],"address":"3068 Waldorf Marketplace Waldorf MD 20601","longitude":-76.91545,"latitude":38.6283485},{"name":"MANASSAS","hours":["Sun","Mon 9 AM - 6 PM","Tue 9 AM - 6 PM","Wed 9 AM - 6 PM","Thu 9 AM - 6 PM","Fri 9 AM - 6 PM","Sat 9 AM - 1 PM"],"address":"8120 Sudley Road Manassas VA 20109","longitude":-77.5103178,"latitude":38.7792751},{"name":"BRAMBLETON TOWN CENTER","hours":["Sun","Mon 9 AM - 5 PM","Tue 9 AM - 5 PM","Wed 9 AM - 5 PM","Thu 9 AM - 5 PM","Fri 9 AM - 6 PM","Sat 9 AM - 1 PM"],"address":"42405 Ryan Road Brambleton VA 20148","longitude":-77.535095,"latitude":38.9849085},{"name":"LANSDOWNE","hours":["Sun","Mon 9 AM - 5 PM","Tue 9 AM - 5 PM","Wed 9 AM - 5 PM","Thu 9 AM - 5 PM","Fri 9 AM - 6 PM","Sat 9 AM - 1 PM"],"address":"19301 Promenade Drive Leesburg VA 20176","longitude":-77.4932936,"latitude":39.0797106},{"name":"CLARKSVILLE","hours":["Sun","Mon 9 AM - 5 PM","Tue 9 AM - 5 PM","Wed 9 AM - 5 PM","Thu 9 AM - 5 PM","Fri 9 AM - 6 PM","Sat 9 AM - 1 PM"],"address":"6090 Daybreak Circle Clarksville MD 21029","longitude":-76.9380482,"latitude":39.2104587},{"name":"MINSTREL CROSSING/COLUMBIA","hours":["Sun","Mon 9 AM - 5 PM","Tue 9 AM - 5 PM","Wed 9 AM - 5 PM","Thu 9 AM - 5 PM","Fri 9 AM - 6 PM","Sat 9 AM - 1 PM"],"address":"7085 Minstrel Way Columbia MD 21045","longitude":-76.8454275,"latitude":39.1764975},{"name":"DUMFRIES","hours":["Sun","Mon 9 AM - 5 PM","Tue 9 AM - 5 PM","Wed 9 AM - 5 PM","Thu 9 AM - 5 PM","Fri 9 AM - 6 PM","Sat 9 AM - 1 PM"],"address":"4425 Fortuna Center Plaza Dumfries VA 22025","longitude":-77.3337903,"latitude":38.5960272},{"name":"ASHLAND SQUARE/MANASSAS","hours":["Sun","Mon 9 AM - 5 PM","Tue 9 AM - 5 PM","Wed 9 AM - 5 PM","Thu 9 AM - 5 PM","Fri 9 AM - 6 PM","Sat"],"address":"5575 Ashland Community Square Manassas VA 20112","longitude":-77.3735276,"latitude":38.6130818},{"name":"POTOMAC STATION","hours":["Sun","Mon 9 AM - 5 PM","Tue 9 AM - 5 PM","Wed 9 AM - 5 PM","Thu 9 AM - 5 PM","Fri 9 AM - 6 PM","Sat 9 AM - 1 PM"],"address":"607 Potomac Station Drive Leesburg VA 20176","longitude":-77.5284008,"latitude":39.0985339},{"name":"WAUGH CHAPEL","hours":["Sun","Mon 9 AM - 5 PM","Tue 9 AM - 5 PM","Wed 9 AM - 5 PM","Thu 9 AM - 5 PM","Fri 9 AM - 6 PM","Sat 9 AM - 1 PM"],"address":"2611 Brandermill Boulevard Gambrills MD 21054","longitude":-76.6792946,"latitude":39.0368696},{"name":"DOBBIN CENTER/COLUMBIA","hours":["Sun","Mon 9 AM - 5 PM","Tue 9 AM - 5 PM","Wed 9 AM - 5 PM","Thu 9 AM - 5 PM","Fri 9 AM - 6 PM","Sat 9 AM - 1 PM"],"address":"6445 Dobbin Road Columbia MD 21045","longitude":-76.8174309,"latitude":39.1958701},{"name":"LA PLATA STATION","hours":["Sun","Mon 9 AM - 5 PM","Tue 9 AM - 5 PM","Wed 9 AM - 5 PM","Thu 9 AM - 5 PM","Fri 9 AM - 6 PM","Sat 9 AM - 1 PM"],"address":"20 Shining Willow Way La Plata MD 20646","longitude":-76.9842596,"latitude":38.5436566},{"name":"GATEWAY OVERLOOK/COLUMBIA","hours":["Sun","Mon 9 AM - 5 PM","Tue 9 AM - 5 PM","Wed 9 AM - 5 PM","Thu 9 AM - 5 PM","Fri 9 AM - 6 PM","Sat 9 AM - 1 PM"],"address":"6690 Marie Curie Drive Elkridge MD 21075","longitude":-76.795525,"latitude":39.186866},{"name":"BRAEMAR VILLAGE CENTER","hours":["Sun","Mon 9 AM - 5 PM","Tue 9 AM - 5 PM","Wed 9 AM - 5 PM","Thu 9 AM - 5 PM","Fri 9 AM - 6 PM","Sat 9 AM - 1 PM"],"address":"12601 Braemar Village Center Bristow VA 20136","longitude":-77.5367043,"latitude":38.723303},{"name":"DAMASCUS","hours":["Sun","Mon 9 AM - 5 PM","Tue 9 AM - 5 PM","Wed 9 AM - 5 PM","Thu 9 AM - 5 PM","Fri 9 AM - 6 PM","Sat 9 AM - 1 PM"],"address":"26001 Ridge Road Damascus MD 20872","longitude":-77.2093297,"latitude":39.2847255},{"name":"VIRGINIA GATEWAY","hours":["Sun","Mon 9 AM - 5 PM","Tue 9 AM - 5 PM","Wed 9 AM - 5 PM","Thu 9 AM - 5 PM","Fri 9 AM - 6 PM","Sat 9 AM - 1 PM"],"address":"13236 Gateway Center Dr Gainesville VA 20155","longitude":-77.6055921,"latitude":38.7970196},{"name":"LEESBURG","hours":["Sun","Mon 9 AM - 5 PM","Tue 9 AM - 5 PM","Wed 9 AM - 5 PM","Thu 9 AM - 5 PM","Fri 9 AM - 6 PM","Sat 9 AM - 1 PM"],"address":"401 East Market ST Leesburg VA 20176","longitude":-77.5554549,"latitude":39.1101336},{"name":"ARUNDEL MILLS","hours":["Sun","Mon 9 AM - 5 PM","Tue 9 AM - 5 PM","Wed 9 AM - 5 PM","Thu 9 AM - 5 PM","Fri 9 AM - 6 PM","Sat 9 AM - 1 PM"],"address":"7566 Ridge Road Hanover MD 21076","longitude":-76.7210978,"latitude":39.1528704},{"name":"DORSEY'S SEARCH","hours":["Sun","Mon 9 AM - 5 PM","Tue 9 AM - 5 PM","Wed 9 AM - 5 PM","Thu 9 AM - 5 PM","Fri 9 AM - 6 PM","Sat 9 AM - 1 PM"],"address":"4745 Dorsey Hall Drive Ellicott City MD 21042","longitude":-76.8410894,"latitude":39.2422436},{"name":"DUNKIRK","hours":["Sun","Mon 9 AM - 5 PM","Tue 9 AM - 5 PM","Wed 9 AM - 5 PM","Thu 9 AM - 5 PM","Fri 9 AM - 6 PM","Sat 9 AM - 1 PM"],"address":"10840 Town Center Boulevard Dunkirk MD 20754","longitude":-76.6582547,"latitude":38.725262},{"name":"LYNDWOOD SQUARE/ELKRIDGE","hours":["Sun","Mon 9 AM - 5 PM","Tue 9 AM - 5 PM","Wed 9 AM - 5 PM","Thu 9 AM - 5 PM","Fri 9 AM - 6 PM","Sat 9 AM - 1 PM"],"address":"6000 Marshalee Drive Elkridge MD 21075","longitude":-76.7780904,"latitude":39.2111345},{"name":"EDGEWATER","hours":["Sun","Mon 9 AM - 5 PM","Tue 9 AM - 5 PM","Wed 9 AM - 5 PM","Thu 9 AM - 5 PM","Fri 9 AM - 6 PM","Sat 9 AM - 1 PM"],"address":"85 Stewart Dr Edgewater MD 21037","longitude":-76.567845,"latitude":38.934975},{"name":"ELLICOTT CITY","hours":["Sun","Mon 9 AM - 5 PM","Tue 9 AM - 5 PM","Wed 9 AM - 5 PM","Thu 9 AM - 5 PM","Fri 9 AM - 6 PM","Sat 9 AM - 1 PM"],"address":"9245 Baltimore National Pike Ellicott City MD 21042","longitude":-76.8302289,"latitude":39.2767764},{"name":"MADISON CRESCENT/GAINESVILLE","hours":["Sun","Mon 9 AM - 5 PM","Tue 9 AM - 5 PM","Wed 9 AM - 5 PM","Thu 9 AM - 5 PM","Fri 9 AM - 6 PM","Sat 9 AM - 1 PM"],"address":"8092 Crescent Park Drive Gainesville VA 20155","longitude":-77.6649726,"latitude":38.7833112},{"name":"QUARTERFIELD CROSSING/SEVERN","hours":["Sun","Mon 9 AM - 5 PM","Tue 9 AM - 5 PM","Wed 9 AM - 5 PM","Thu 9 AM - 5 PM","Fri 9 AM - 6 PM","Sat 9 AM - 1 PM"],"address":"7821 Quarterfield Park Road Severn MD 21144","longitude":-76.6530125,"latitude":39.1507177},{"name":"URBANA","hours":["Sun","Mon 9 AM - 5 PM","Tue 9 AM - 5 PM","Wed 9 AM - 5 PM","Thu 9 AM - 5 PM","Fri 9 AM - 6 PM","Sat 9 AM - 1 PM"],"address":"9122 Hinks Lane Frederick MD 21704","longitude":-77.3523152,"latitude":39.3283672},{"name":"MT. AIRY","hours":["Sun","Mon 9 AM - 5 PM","Tue 9 AM - 5 PM","Wed 9 AM - 5 PM","Thu 9 AM - 5 PM","Fri 9 AM - 6 PM","Sat 9 AM - 1 PM"],"address":"402 East Ridgeville Boulevard Mt. Airy MD 21771","longitude":-77.1612463,"latitude":39.3640536},{"name":"WEST STREET","hours":["Sun","Mon 9 AM - 5 PM","Tue 9 AM - 5 PM","Wed 9 AM - 5 PM","Thu 9 AM - 5 PM","Fri 9 AM - 6 PM","Sat 9 AM - 1 PM"],"address":"2063 West ST Annapolis MD 21401","longitude":-76.5386306,"latitude":38.9832023},{"name":"GLEN BURNIE","hours":["Sun","Mon 9 AM - 5 PM","Tue 9 AM - 5 PM","Wed 9 AM - 5 PM","Thu 9 AM - 5 PM","Fri 9 AM - 6 PM","Sat 9 AM - 1 PM"],"address":"7937 Ritchie Highway Glen Burnie MD 21061","longitude":-76.6004041,"latitude":39.1381741},{"name":"VILLAGE GREENS","hours":["Sun","Mon 9 AM - 5 PM","Tue 9 AM - 5 PM","Wed 9 AM - 5 PM","Thu 9 AM - 5 PM","Fri 9 AM - 6 PM","Sat 9 AM - 1 PM"],"address":"501 South Cherry Grove AVE Annapolis MD 21401","longitude":-76.5199344,"latitude":38.9688398},{"name":"SEVERNA PARK","hours":["Sun","Mon 9 AM - 5 PM","Tue 9 AM - 5 PM","Wed 9 AM - 5 PM","Thu 9 AM - 5 PM","Fri 9 AM - 6 PM","Sat 9 AM - 1 PM"],"address":"500 Ritchie Highway Severna Park MD 21146","longitude":-76.549261,"latitude":39.080289},{"name":"STAFFORD MARKETPLACE","hours":["Sun","Mon 9 AM - 5 PM","Tue 9 AM - 5 PM","Wed 9 AM - 5 PM","Thu 9 AM - 5 PM","Fri 9 AM - 6 PM","Sat 9 AM - 1 PM"],"address":"1025 Stafford Marketplace Stafford VA 22556","longitude":-77.4098561,"latitude":38.4685384},{"name":"PURCELLVILLE","hours":["Sun","Mon 9 AM - 5 PM","Tue 9 AM - 5 PM","Wed 9 AM - 5 PM","Thu 9 AM - 5 PM","Fri 9 AM - 6 PM","Sat 9 AM - 1 PM"],"address":"1010 East Main ST Purcellville VA 20132","longitude":-77.6985539,"latitude":39.1355978},{"name":"KINGSBROOK","hours":["Sun","Mon 9 AM - 5 PM","Tue 9 AM - 5 PM","Wed 9 AM - 5 PM","Thu 9 AM - 5 PM","Fri 9 AM - 6 PM","Sat 9 AM - 1 PM"],"address":"5312 New Design Road Frederick MD 21703","longitude":-77.4232348,"latitude":39.3801138},{"name":"Mt Clare Junction","hours":["Sun","Mon 9 AM - 5 PM","Tue 9 AM - 5 PM","Wed 9 AM - 5 PM","Thu 9 AM - 5 PM","Fri 9 AM - 6 PM","Sat 9 AM - 1 PM"],"address":"1241 West Pratt Street Baltimore MD 21223","longitude":-76.6375081,"latitude":39.2842683},{"name":"URBANA PIKE/FREDERICK","hours":["Sun","Mon 9 AM - 5 PM","Tue 9 AM - 5 PM","Wed 9 AM - 5 PM","Thu 9 AM - 5 PM","Fri 9 AM - 6 PM","Sat 9 AM - 1 PM"],"address":"5903 Buckeystown Pike Frederick MD 21704","longitude":-77.4083556,"latitude":39.3970189},{"name":"NORTHROCK SHOPPING CENTER/WARRENTON","hours":["Sun","Mon 9 AM - 5 PM","Tue 9 AM - 5 PM","Wed 9 AM - 5 PM","Thu 9 AM - 5 PM","Fri 9 AM - 6 PM","Sat 9 AM - 1 PM"],"address":"521 Fletcher Drive WARRENTON VA 20186","longitude":-77.7938736,"latitude":38.7276336},{"name":"Mondawmin Mall","hours":["Sun","Mon 9 AM - 5 PM","Tue 9 AM - 5 PM","Wed 9 AM - 5 PM","Thu 9 AM - 5 PM","Fri 9 AM - 6 PM","Sat 9 AM - 1 PM"],"address":"2401 Liberty Heights Ave (#2725) Baltimore MD 21215","longitude":-76.654697,"latitude":39.3170829},{"name":"CALVERT &amp; BALTIMORE","hours":["Sun","Mon 9 AM - 5 PM","Tue 9 AM - 5 PM","Wed 9 AM - 5 PM","Thu 9 AM - 5 PM","Fri 9 AM - 6 PM","Sat"],"address":"135 East Baltimore ST Baltimore MD 21202","longitude":-76.6125252,"latitude":39.2895119},{"name":"Reisterstown","hours":["Sun","Mon 9 AM - 5 PM","Tue 9 AM - 5 PM","Wed 9 AM - 5 PM","Thu 9 AM - 5 PM","Fri 9 AM - 6 PM","Sat 9 AM - 1 PM"],"address":"6504 Reisterstown Rd Baltimore MD 21215","longitude":-76.7029996,"latitude":39.3565224},{"name":"FREDERICK","hours":["Sun","Mon 9 AM - 6 PM","Tue 9 AM - 6 PM","Wed 9 AM - 6 PM","Thu 9 AM - 6 PM","Fri 9 AM - 6 PM","Sat 9 AM - 1 PM"],"address":"1009 West Patrick ST Frederick MD 21701","longitude":-77.445082,"latitude":39.417858},{"name":"FREDERICK TOWN CENTER","hours":["Sun","Mon 9 AM - 5 PM","Tue 9 AM - 5 PM","Wed 9 AM - 5 PM","Thu 9 AM - 5 PM","Fri 9 AM - 6 PM","Sat 9 AM - 1 PM"],"address":"1305 W. 7th ST, Suite #39 Frederick MD 21702","longitude":-94.6522169,"latitude":37.0747888},{"name":"SHOPS AT MONOCACY","hours":["Sun","Mon 9 AM - 5 PM","Tue 9 AM - 5 PM","Wed 9 AM - 5 PM","Thu 9 AM - 5 PM","Fri 9 AM - 6 PM","Sat 9 AM - 1 PM"],"address":"1701 Kingfisher Drive Frederick MD 21701","longitude":-77.3831839,"latitude":39.4490663},{"name":"Dundalk Plaza","hours":["Sun","Mon 9 AM - 5 PM","Tue 9 AM - 5 PM","Wed 9 AM - 5 PM","Thu 9 AM - 5 PM","Fri 9 AM - 6 PM","Sat 9 AM - 1 PM"],"address":"1309 Merritt Blvd Dundalk Md 21222","longitude":-76.5043889,"latitude":39.2794111},{"name":"KENT ISLAND","hours":["Sun","Mon 9 AM - 5 PM","Tue 9 AM - 5 PM","Wed 9 AM - 5 PM","Thu 9 AM - 5 PM","Fri 9 AM - 6 PM","Sat 9 AM - 1 PM"],"address":"119 South Piney Road Chester MD 21619","longitude":-76.2704801,"latitude":38.9738576},{"name":"CENTRAL PARK","hours":["Sun","Mon 9 AM - 5 PM","Tue 9 AM - 5 PM","Wed 9 AM - 5 PM","Thu 9 AM - 5 PM","Fri 9 AM - 6 PM","Sat 9 AM - 1 PM"],"address":"1980 Carl D. Silver Parkway Fredericksburg VA 22401","longitude":-77.513818,"latitude":38.3086187},{"name":"WESTMINSTER CROSSING","hours":["Sun","Mon 9 AM - 5 PM","Tue 9 AM - 5 PM","Wed 9 AM - 5 PM","Thu 9 AM - 5 PM","Fri 9 AM - 6 PM","Sat 9 AM - 1 PM"],"address":"202 Clifton Boulevard Westminster MD 21157","longitude":-76.9881046,"latitude":39.5845506},{"name":"HARRISON CROSSING/FREDERICKSBURG","hours":["Sun","Mon 9 AM - 5 PM","Tue 9 AM - 5 PM","Wed 9 AM - 5 PM","Thu 9 AM - 5 PM","Fri 9 AM - 6 PM","Sat 9 AM - 1 PM"],"address":"5651 Plank Road Fredericksburg VA 22407","longitude":-77.5673458,"latitude":38.2919319},{"name":"MASSAPONAX","hours":["Sun","Mon 9 AM - 5 PM","Tue 9 AM - 5 PM","Wed 9 AM - 5 PM","Thu 9 AM - 5 PM","Fri 9 AM - 6 PM","Sat 9 AM - 1 PM"],"address":"9801 Jefferson Davis Highway Fredericksburg VA 22407","longitude":-77.5046085,"latitude":38.2211308},{"name":"SOUTH PLAZA","hours":["Sun","Mon 9 AM - 5 PM","Tue 9 AM - 5 PM","Wed 9 AM - 5 PM","Thu 9 AM - 5 PM","Fri 9 AM - 6 PM","Sat 9 AM - 1 PM"],"address":"45210 Worth AVE California MD 20619","longitude":-76.5106685,"latitude":38.2985423},{"name":"CULPEPER COLONNADE","hours":["Sun","Mon 9 AM - 5 PM","Tue 9 AM - 5 PM","Wed 9 AM - 5 PM","Thu 9 AM - 5 PM","Fri 9 AM - 6 PM","Sat 9 AM - 1 PM"],"address":"15237 Creativity Drive Culpeper VA 22701","longitude":-77.969124,"latitude":38.4837731},{"name":"WATERSIDE VILLAGE/EASTON","hours":["Sun","Mon 9 AM - 5 PM","Tue 9 AM - 5 PM","Wed 9 AM - 5 PM","Thu 9 AM - 5 PM","Fri 9 AM - 6 PM","Sat 9 AM - 1 PM"],"address":"28575 Marlboro Ave Easton MD 21601","longitude":-76.084896,"latitude":38.7825011},{"name":"CENTRE AT ANTIETAM/HAGERSTOWN","hours":["Sun","Mon 9 AM - 5 PM","Tue 9 AM - 5 PM","Wed 9 AM - 5 PM","Thu 9 AM - 5 PM","Fri 9 AM - 6 PM","Sat 9 AM - 1 PM"],"address":"950 Dual Highway Hagerstown MD 21740","longitude":-77.7019183,"latitude":39.6332388},{"name":"STONE HOUSE SQUARE/HAGERSTOWN","hours":["Sun","Mon 9 AM - 5 PM","Tue 9 AM - 5 PM","Wed 9 AM - 5 PM","Thu 9 AM - 5 PM","Fri 9 AM - 6 PM","Sat 9 AM - 1 PM"],"address":"12806 Shank Farm Way Hagerstown MD 21742","longitude":-77.700267,"latitude":39.663966}]